{"time":0.004,"total_rows":14,"rows":[{"id":1,"lon":-0.14436722,"lat":51.49613345,"heightrank":3,"labelrank":3,"name":"VictoriaStation","city":"london","type":"transport"},{"id":10,"lon":-0.279851,"lat":51.555755,"heightrank":2,"labelrank":1,"name":"WembleyArena","city":"london","type":"sports"},{"id":11,"lon":-0.019054,"lat":51.542812,"heightrank":1,"labelrank":1,"name":"OlympicVillage","city":"london","type":"sports"},{"id":8,"lon":-0.19680977,"lat":51.50895614,"heightrank":1,"labelrank":2,"name":"NottingHill","city":"london","type":"turist"},{"id":7,"lon":-0.12342453,"lat":51.53063964,"heightrank":2,"labelrank":3,"name":"King'sCross","city":"london","type":"transport"},{"id":6,"lon":-0.07540226,"lat":51.50548369,"heightrank":1,"labelrank":2,"name":"TowerBridge","city":"london","type":"turist"},{"id":5,"lon":-0.119583606719971,"lat":51.5033466577286,"heightrank":2,"labelrank":1,"name":"LondonEye","city":"london","type":"turist"},{"id":4,"lon":-0.16822815,"lat":51.5059645,"heightrank":3,"labelrank":2,"name":"HydePark","city":"london","type":"park"},{"id":47,"lon":-0.098056,"lat":51.513611,"heightrank":1,"labelrank":1,"name":"StPaul’sCathedral ","city":"london","type":"church"},{"id":48,"lon":-0.127499,"lat":51.499444,"heightrank":1,"labelrank":2,"name":"BigBen","city":"london","type":"turist"},{"id":49,"lon":0.055278,"lat":51.505278,"heightrank":2,"labelrank":1,"name":"CityAirport","city":"london","type":"airport"},{"id":50,"lon":-0.188333,"lat":51.505278,"heightrank":2,"labelrank":1,"name":"Kensingtonpalace","city":"london","type":"turist"},{"id":3,"lon":-0.14299393,"lat":51.50174382,"heightrank":1,"labelrank":1,"name":"BuckinghamPalace\n","city":"london","type":"church"},{"id":51,"lon":-0.295467,"lat":51.474667,"heightrank":1,"labelrank":1,"name":"KewGardens","city":"london","type":"park"}]}