{"time":0.002,"total_rows":11,"rows":[{"id":37,"lon":12.47310877,"lat":41.89887521,"heightrank":2,"labelrank":1,"name":"PiazzaNavona","city":"rome","type":"turist"},{"id":38,"lon":12.4768424,"lat":41.89852383,"heightrank":1,"labelrank":2,"name":"Pantheon","city":"rome","type":"turist"},{"id":40,"lon":12.48561859,"lat":41.9139026,"heightrank":1,"labelrank":2,"name":"VillaBorghese","city":"rome","type":"turist"},{"id":44,"lon":12.483001,"lat":41.900904,"heightrank":2,"labelrank":2,"name":"TreviFountain","city":"rome","type":"turist"},{"id":35,"lon":12.453333,"lat":41.902222,"heightrank":2,"labelrank":1,"name":"St.Peterâ€™sBasilica","city":"rome","type":"church"},{"id":36,"lon":12.49231339,"lat":41.89023406,"heightrank":2,"labelrank":1,"name":"Colosseum","city":"rome","type":"turist"},{"id":39,"lon":12.50141144,"lat":41.90141462,"heightrank":2,"labelrank":1,"name":"Terministation","city":"rome","type":"transport"},{"id":42,"lon":12.45429039,"lat":41.93385912,"heightrank":1,"labelrank":1,"name":"OlympicStadium","city":"rome","type":"sports"},{"id":45,"lon":12.466355,"lat":41.903064,"heightrank":1,"labelrank":1,"name":"CastelSantAngelo","city":"rome","type":"turist"},{"id":46,"lon":12.482778,"lat":41.893333,"heightrank":2,"labelrank":2,"name":"MonteCapitolino","city":"rome","type":"turist"},{"id":41,"lon":12.25284576,"lat":41.79537619,"heightrank":1,"labelrank":1,"name":"LeonardoDaVinciairport","city":"rome","type":"airport"}]}