{"time":0.002,"total_rows":13,"rows":[{"id":12,"lon":72.83457,"lat":18.922003,"heightrank":3,"labelrank":2,"name":"GatewayofIndia","city":"mumbai","type":"turist"},{"id":57,"lon":72.830504,"lat":19.016804,"heightrank":1,"labelrank":1,"name":"ShreeSiddhivinayakTemple","city":"mumbai","type":"turist"},{"id":14,"lon":72.867422,"lat":19.089779,"heightrank":2,"labelrank":1,"name":"ChhatrapatiShivajiInternationalAirport","city":"mumbai","type":"airport"},{"id":58,"lon":72.826125,"lat":18.938966,"heightrank":1,"labelrank":1,"name":"WankhedeStadium","city":"mumbai","type":"sports"},{"id":18,"lon":72.808966,"lat":18.982871,"heightrank":1,"labelrank":1,"name":"HajiAliDargah","city":"mumbai","type":"turist"},{"id":16,"lon":72.825859,"lat":19.087467,"heightrank":1,"labelrank":1,"name":"JuhuBeach","city":"mumbai","type":"beach"},{"id":59,"lon":72.90046692,"lat":19.16981572,"heightrank":1,"labelrank":1,"name":"SanjayGandhiNationalPark","city":"mumbai","type":"park"},{"id":61,"lon":72.830738,"lat":18.952016,"heightrank":1,"labelrank":2,"name":"MumbaDevitemple","city":"mumbai","type":"church"},{"id":62,"lon":72.79512,"lat":19.176007,"heightrank":1,"labelrank":1,"name":"AksaBeach","city":"mumbai","type":"beach"},{"id":63,"lon":72.806123,"lat":19.22808,"heightrank":1,"labelrank":1,"name":"GlobalVipassanaPagoda","city":"mumbai","type":"church"},{"id":60,"lon":72.860759,"lat":19.17301,"heightrank":2,"labelrank":1,"name":"WestinHotelGoregaon","city":"mumbai","type":"turist"},{"id":56,"lon":72.832907,"lat":18.921907,"heightrank":1,"labelrank":1,"name":"TheTajMahalPalace","city":"mumbai","type":"church"},{"id":17,"lon":72.830096,"lat":18.929549,"heightrank":1,"labelrank":2,"name":"RajabaiClockTower","city":"mumbai","type":"turist"}]}