{"time":0.003,"total_rows":12,"rows":[{"id":31,"lon":-87.622983,"lat":41.898652,"heightrank":1,"labelrank":2,"name":"JohnHancockBuilding","city":"chicago","type":"turist"},{"id":32,"lon":-87.58283615,"lat":41.79044882,"heightrank":2,"labelrank":1,"name":"MuseumOfScience&Industry","city":"chicago","type":"turist"},{"id":33,"lon":-87.67390251,"lat":41.88068111,"heightrank":1,"labelrank":1,"name":"UnitedCenter","city":"chicago","type":"sports"},{"id":43,"lon":-87.673645,"lat":41.870647,"heightrank":2,"labelrank":2,"name":"UniversityofIllinois","city":"chicago","type":"turist"},{"id":30,"lon":-87.62274742,"lat":41.88272601,"heightrank":2,"labelrank":1,"name":"MilleniumPark","city":"chicago","type":"park"},{"id":28,"lon":-87.60895,"lat":41.89164,"heightrank":2,"labelrank":2,"name":"NavyPier","city":"chicago","type":"turist"},{"id":34,"lon":-87.6341629,"lat":41.92306741,"heightrank":1,"labelrank":1,"name":"LincolnParkZoo","city":"chicago","type":"park"},{"id":29,"lon":-87.90847778,"lat":41.97889001,"heightrank":1,"labelrank":1,"name":"O'HareInternationalAirport","city":"chicago","type":"airport"},{"id":52,"lon":-87.64025,"lat":41.878638,"heightrank":1,"labelrank":2,"name":"UnionStation","city":"chicago","type":"transport"},{"id":53,"lon":-87.6141,"lat":41.8665,"heightrank":2,"labelrank":1,"name":"MuseumCampus","city":"chicago","type":"turist"},{"id":55,"lon":-87.655556,"lat":41.948333,"heightrank":1,"labelrank":1,"name":"WrigleyField","city":"chicago","type":"park"},{"id":54,"lon":-87.618944,"lat":41.875792,"heightrank":2,"labelrank":2,"name":"BuckinghamFountain","city":"chicago","type":"turist"}]}