{"time":0.002,"total_rows":9,"rows":[{"id":19,"lon":24.94939327,"lat":60.17007978,"heightrank":1,"labelrank":2,"name":"HelsinkiCathedral","city":"helsinki","type":"church"},{"id":21,"lon":24.93154049,"lat":60.17501062,"heightrank":1,"labelrank":1,"name":"NationalMuseumofFinland","city":"helsinki","type":"turist"},{"id":25,"lon":24.94677544,"lat":60.16751801,"heightrank":2,"labelrank":1,"name":"EsplanadePark","city":"helsinki","type":"park"},{"id":20,"lon":24.98209476,"lat":60.17983402,"heightrank":1,"labelrank":1,"name":"HelsinkiZoo","city":"helsinki","type":"park"},{"id":24,"lon":24.98780251,"lat":60.14513672,"heightrank":1,"labelrank":1,"name":"SuomenlinnaMaritimeFortress","city":"helsinki","type":"turist"},{"id":23,"lon":24.94514465,"lat":60.31810852,"heightrank":1,"labelrank":1,"name":"VantaaAirport","city":"helsinki","type":"airport"},{"id":22,"lon":24.92596149,"lat":60.18698245,"heightrank":1,"labelrank":1,"name":"OlympicStadium","city":"helsinki","type":"sports"},{"id":64,"lon":24.829,"lat":60.17,"heightrank":1,"labelrank":1,"name":"NokiaHouse","city":"helsinki","type":"turist"},{"id":65,"lon":24.830254,"lat":60.182779,"heightrank":1,"labelrank":1,"name":"AaltoUniversity","city":"helsinki","type":"church"}]}